City_ID,City,Lat,Lng,Max Temp,Humidity,Cloudiness,Wind Speed,Country,Date
0,waitangi,-43.9535,-176.5597,15.46,94,100,0.89,NZ,1706907505
1,walvis bay,-22.9575,14.5053,18.94,95,100,2.11,NA,1706907615
2,enewetak,11.3474,162.3373,26.46,84,100,10.55,MH,1706907618
3,dois vizinhos,-25.7336,-53.0572,27.34,58,50,1.84,BR,1706907457
4,port-aux-francais,-49.35,70.2167,7.28,99,89,8.44,TF,1706907619
5,carnarvon,-24.8667,113.6333,23.92,85,13,4.73,AU,1706907600
6,ola,59.5833,151.2833,-23.21,75,100,3.35,RU,1706907621
7,hawaiian paradise park,19.5933,-154.9731,23.28,97,100,6.69,US,1706907621
8,ushuaia,-54.8,-68.3,4.85,100,100,2.06,AR,1706907608
9,chul'man,56.8479,124.9104,-38.34,100,100,0.63,RU,1706907623
10,ilulissat,69.2167,-51.1,-21.99,64,75,8.23,GL,1706907624
11,tura,25.5198,90.2201,11.69,58,0,2.27,IN,1706907625
12,olonkinbyen,70.9221,-8.7187,-5.15,60,100,8.03,SJ,1706907626
13,esperanza,19.5847,-70.9849,24.32,80,89,1.88,DO,1706907627
14,mamuju,-2.6748,118.8885,27.5,81,100,4.32,ID,1706907628
15,lihue,21.9789,-159.3672,22.08,71,36,5.36,US,1706907628
16,isafjordur,66.0755,-23.124,-2.98,63,40,2.57,IS,1706907629
17,phek,25.6667,94.5,2.83,96,40,0.58,IN,1706907631
18,bethel,41.3712,-73.414,6.63,77,100,4.63,US,1706907632
19,constanta,44.1833,28.65,2.61,76,84,5.1,RO,1706907404
20,shubarkuduk,49.1447,56.4872,-0.49,96,100,6.41,KZ,1706907635
21,baikonur,45.6167,63.3167,-6.48,86,100,3.95,KZ,1706907636
22,yellowknife,62.456,-114.3525,-10.95,99,100,2.88,CA,1706907637
23,ust-nera,64.5667,143.2,-29.06,100,100,1.54,RU,1706907638
24,albany,42.6001,-73.9662,4.01,75,98,0.45,US,1706907639
25,adamstown,-25.066,-130.1015,24.94,81,22,3.81,PN,1706907639
26,sitka,57.0531,-135.33,-2.06,86,75,3.09,US,1706907640
27,kapuskasing,49.4169,-82.4331,-4.4,72,92,1.98,CA,1706907641
28,ribeira grande,38.5167,-28.7,17.22,94,40,6.17,PT,1706907642
29,georgetown,5.4112,100.3354,27.96,89,20,1.54,MY,1706907390
30,puerto gaitan,4.3133,-72.0816,34.32,44,71,2.83,CO,1706907643
31,chonchi,-42.6128,-73.8092,16.62,69,80,3.62,CL,1706907644
32,papatowai,-46.5619,169.4708,7.25,98,100,2.24,NZ,1706907644
33,kodiak,57.79,-152.4072,-5.79,64,72,4.45,US,1706907645
34,bathsheba,13.2167,-59.5167,26.72,73,10,4.57,BB,1706907646
35,talnakh,69.4865,88.3972,-12.78,94,100,7.19,RU,1706907646
36,luderitz,-26.6481,15.1594,17.46,97,69,4.72,NA,1706907647
37,mogadishu,2.0371,45.3438,25.88,86,32,6.64,SO,1706907648
38,sretensk,52.2453,117.7093,-33.53,100,44,0.42,RU,1706907648
39,saraktash,51.7866,51.7866,0.13,98,100,5.45,RU,1706907650
40,kuchinda,21.7333,84.35,16.16,68,0,1.71,IN,1706907651
41,iqaluit,63.7506,-68.5145,-29.26,96,100,3.39,CA,1706907652
42,okha,53.5739,142.9478,-20.82,86,100,7.67,RU,1706907652
43,margaret river,-33.95,115.0667,18.21,95,89,4.14,AU,1706907385
44,glace bay,46.1969,-59.957,0.25,95,100,3.09,CA,1706907654
45,grytviken,-54.2811,-36.5092,5.94,76,100,3.2,GS,1706907654
46,broome,42.2506,-75.833,3.21,87,100,4.63,US,1706907655
47,port mathurin,-19.6833,63.4167,27.32,78,94,9.69,MU,1706907656
48,longyearbyen,78.2186,15.6401,-11.09,79,40,2.57,SJ,1706907656
49,stanley,54.868,-1.6985,11.96,84,75,12.35,GB,1706907613
50,el salto,20.3333,-104.5,24.59,30,0,3.71,MX,1706907657
51,bubaque,11.2833,-15.8333,25.7,71,0,5.55,GW,1706907658
52,puerto ayora,-0.7393,-90.3518,31.98,80,97,5.32,EC,1706907470
53,baoshan,46.5586,131.4244,-25.51,96,5,2.65,CN,1706907659
54,uturoa,-16.7333,-151.4333,28.16,76,100,5.29,PF,1706907660
55,avarua,-21.2078,-159.775,29.03,79,100,1.54,CK,1706907661
56,nemuro,43.3236,145.575,-8.58,69,98,13.08,JP,1706907661
57,hasaki,35.7333,140.8333,-0.78,51,49,5.73,JP,1706907662
58,campo alegre,-9.7819,-36.3508,26.34,65,99,5.91,BR,1706907379
59,grantsville,40.5999,-112.4644,5.94,100,100,2.06,US,1706907664
60,korla,41.7597,86.1469,-5.7,84,72,2.58,CN,1706907665
61,sohagi,24.9833,81.7,12.98,64,0,2.62,IN,1706907666
62,port elizabeth,-33.918,25.5701,21.17,95,60,1.34,ZA,1706907666
63,st. john's,47.5649,-52.7093,-0.62,83,100,2.71,CA,1706907667
64,starobaltachevo,56.0013,55.9213,-5.11,94,100,5.15,RU,1706907668
65,afaahiti,-17.75,-149.2833,28.93,73,100,3.58,PF,1706907668
66,edinburgh of the seven seas,-37.0676,-12.3116,18.69,94,16,6.45,SH,1706907669
67,gadzhiyevo,69.2551,33.3362,-12.54,94,35,5.6,RU,1706907670
68,puerto natales,-51.7236,-72.4875,8.93,98,100,1.88,CL,1706907606
69,hithadhoo,-0.6,73.0833,28.48,75,24,4.97,MV,1706907671
70,andreapol',56.6513,32.2664,-5.1,93,93,3.77,RU,1706907405
71,thompson,55.7435,-97.8558,1.24,100,32,2.52,CA,1706907673
72,hammerfest,70.6634,23.6821,-6.75,86,0,0.0,NO,1706907674
73,brownfield,33.1812,-102.2744,21.08,36,97,12.83,US,1706907675
74,wailua homesteads,22.0669,-159.378,22.08,72,52,1.79,US,1706907676
75,vorgashor,67.5833,63.95,-17.64,94,100,2.35,RU,1706907676
76,zaozersk,69.4005,32.4476,-13.84,93,51,3.61,RU,1706907677
77,san julian,21.0167,-102.1667,22.48,30,1,7.47,MX,1706907678
78,whitehorse,60.7161,-135.0538,-21.61,57,72,1.79,CA,1706907678
79,biltine,14.5333,20.9167,20.78,18,72,4.24,TD,1706907679
80,guerrero negro,27.9769,-114.0611,18.68,53,0,7.59,MX,1706907680
81,blackmans bay,-43.0167,147.3167,12.51,64,2,2.68,AU,1706907680
82,atafu village,-8.5421,-172.5159,28.58,78,100,5.04,TK,1706907681
83,radomsko,51.0671,19.4448,4.19,80,100,8.32,PL,1706907480
84,darwin,-12.4611,130.8418,28.99,85,75,6.69,AU,1706907386
85,invercargill,-46.4,168.35,8.9,93,99,0.89,NZ,1706907683
86,kapa'a,22.0752,-159.319,22.83,60,54,1.79,US,1706907684
87,badger,64.8,-147.5333,-33.99,59,40,0.0,US,1706907685
88,mil'kovo,55.6078,37.7956,-2.03,71,100,6.38,RU,1706907685
89,celestun,20.8667,-90.4,25.58,59,1,4.27,MX,1706907686
90,quellon,-43.1167,-73.6167,16.62,66,74,3.03,CL,1706907687
91,nova sintra,14.8667,-24.7167,21.64,70,0,4.88,CV,1706907688
92,bondo,3.8146,23.6866,22.08,28,60,2.0,CD,1706907688
93,veraval,20.9,70.3667,22.4,68,4,2.42,IN,1706907689
94,bredasdorp,-34.5322,20.0403,21.32,92,13,2.56,ZA,1706907479
95,namibe,-15.1961,12.1522,24.99,88,100,3.13,AO,1706907690
96,aqaba,29.5267,35.0078,12.53,58,8,0.75,JO,1706907678
97,humaita,-7.5061,-63.0208,27.52,91,97,0.81,BR,1706907692
98,keflavik,64.0049,-22.5624,-0.76,51,75,22.12,IS,1706907692
99,kone,-21.0595,164.8658,28.22,80,100,2.95,NC,1706907693
100,isiro,2.7739,27.616,21.92,38,35,1.77,CD,1706907558
101,orcopampa,-15.2661,-72.3417,13.97,68,99,4.85,PE,1706907695
102,punta arenas,-53.15,-70.9167,5.06,93,100,6.12,CL,1706907696
103,carora,10.1755,-70.0827,30.46,53,81,1.5,VE,1706907697
104,panaba,21.2833,-88.2667,29.51,40,1,2.51,MX,1706907698
105,remire-montjoly,4.9167,-52.2667,29.02,65,20,4.63,GF,1706907676
106,madarounfa,13.3087,7.156,20.36,18,2,4.52,NE,1706907700
107,launceston,-41.45,147.1667,12.31,76,0,2.57,AU,1706907701
108,labunista,41.2686,20.5961,0.3,79,10,2.56,MK,1706907702
109,kingston,17.997,-76.7936,26.8,75,56,1.79,JM,1706907658
110,alice springs,-23.7,133.8833,29.01,20,100,2.06,AU,1706907703
111,tubarjal,30.4999,38.216,8.4,75,4,3.32,SA,1706907705
112,callao,-12.0667,-77.15,23.26,88,100,5.96,PE,1706907619
113,trapani,37.8333,12.6667,10.15,83,1,3.76,IT,1706907543
114,ghat,24.9647,10.1728,11.45,25,25,0.5,LY,1706907707
115,santana,-0.0583,-51.1817,26.15,87,100,1.9,BR,1706907708
116,borogontsy,62.6683,131.1683,-41.33,100,65,0.98,RU,1706907709
117,jianguang,28.1938,115.7836,4.7,94,100,2.89,CN,1706907710
118,saint-pierre,-21.3393,55.4781,24.82,78,75,5.14,RE,1706907710
119,coyhaique,-45.5752,-72.0662,17.97,55,75,4.63,CL,1706907592
120,saint-francois,46.4154,3.9054,3.15,100,77,1.54,FR,1706907712
121,yovon,38.3141,69.0378,3.82,40,100,4.09,TJ,1706907712
122,mount isa,-20.7333,139.5,25.87,83,40,7.2,AU,1706907714
123,rabo de peixe,37.8,-25.5833,17.77,99,20,4.12,PT,1706907689
124,tralee,52.2704,-9.7026,11.61,95,100,4.16,IE,1706907715
125,port lincoln,-34.7333,135.8667,18.45,86,0,2.09,AU,1706907716
126,lebu,-37.6167,-73.65,19.13,82,33,5.52,CL,1706907716
127,tazovsky,67.4667,78.7,-11.14,91,100,6.61,RU,1706907672
128,palmer,42.1584,-72.3287,5.84,68,99,1.34,US,1706907718
129,china,25.7,-99.2333,29.53,33,0,3.08,MX,1706907692
130,shitanjing,39.2342,106.3439,-5.86,97,87,1.17,CN,1706907719
131,ryotsu-minato,38.0833,138.4333,2.94,60,100,5.94,JP,1706907719
132,west island,-12.1568,96.8225,26.99,94,75,2.57,CC,1706907720
133,rikaze,29.25,88.8833,-5.77,27,4,1.66,CN,1706907721
134,susuman,62.7833,148.1667,-33.34,100,94,1.34,RU,1706907721
135,vila velha,-20.3297,-40.2925,26.64,90,99,1.34,BR,1706907601
136,el porvenir,13.7617,-87.3458,32.37,29,5,3.26,HN,1706907723
137,anadyr,64.75,177.4833,-15.72,60,100,14.0,RU,1706907658
138,oranjemund,-28.55,16.4333,20.12,94,69,0.96,NA,1706907629
139,petropavlovsk-kamchatsky,53.0452,158.6483,-19.75,75,0,4.47,RU,1706907698
140,lhasa,29.65,91.1,-3.97,45,84,0.93,CN,1706907726
141,plymouth,41.8334,-70.8328,6.1,84,86,4.42,US,1706907206
142,tiksi,71.6872,128.8694,-26.77,100,93,1.45,RU,1706907667
143,kapit,2.0167,112.9333,23.25,100,100,0.29,MY,1706907728
144,malango,-2.9627,119.9001,19.24,95,96,1.21,ID,1706907728
145,samana,19.2056,-69.3369,24.29,64,90,2.37,DO,1706907729
146,la sarre,48.8002,-79.1996,-6.43,82,23,0.99,CA,1706907729
147,greymouth,-42.4667,171.2,10.65,87,100,5.8,NZ,1706907730
148,klyuchi,52.2667,79.1667,-10.39,93,100,5.28,RU,1706907731
149,queenstown,-31.8976,26.8753,20.71,79,99,0.47,ZA,1706907731
150,haiku-pauwela,20.9219,-156.3051,20.09,93,100,6.17,US,1706907732
151,satara,17.6833,73.9833,18.09,42,73,2.19,IN,1706907183
152,la ronge,55.1001,-105.2842,3.36,87,69,2.31,CA,1706907733
153,newport,51.5877,-2.9984,11.71,95,100,6.29,GB,1706907734
154,omutinskiy,56.4745,67.6709,-21.63,100,100,3.02,RU,1706907735
155,porto tolle,44.9497,12.3245,8.67,69,7,1.69,IT,1706907491
156,atherton,53.5237,-2.4935,12.38,84,100,1.79,GB,1706907736
157,darlowo,54.421,16.4107,5.05,94,100,12.37,PL,1706907737
158,tomislavgrad,43.7181,17.2267,-0.69,84,39,2.56,BA,1706907737
159,shahrud,36.4182,54.9763,-2.96,81,100,0.93,IR,1706907725
160,wynyard,-41.0,145.7167,11.96,76,1,3.09,AU,1706907739
161,kyzyl-mazhalyk,51.1333,90.6,-23.94,98,100,0.89,RU,1706907739
162,naliya,23.2667,68.8333,21.28,70,0,2.35,IN,1706907740
163,kourou,5.1552,-52.6478,29.03,70,100,3.03,GF,1706907620
164,rio gallegos,-51.6226,-69.2181,10.89,81,100,10.18,AR,1706907741
165,mitu,1.1983,-70.1733,27.8,79,100,0.66,CO,1706907742
166,fang,19.9169,99.2145,13.43,39,0,0.68,TH,1706907743
167,el bayadh,33.6832,1.0193,7.85,39,0,2.52,DZ,1706907743
168,breves,-1.6822,-50.4803,23.29,98,100,0.86,BR,1706907745
169,touba,8.2833,-7.6833,27.85,20,1,0.85,CI,1706907745
170,esil,51.9556,66.4042,-4.04,96,100,5.84,KZ,1706907747
171,suva,-18.1416,178.4415,27.32,79,99,0.69,FJ,1706907717
172,beberibe,-4.1797,-38.1306,27.58,81,85,5.96,BR,1706907749
173,new norfolk,-42.7826,147.0587,13.17,67,7,1.85,AU,1706907749
174,hamilton,39.1834,-84.5333,9.68,63,75,3.6,US,1706907750
175,vernon,50.2581,-119.2691,10.34,72,88,1.45,CA,1706907751
176,santo antonio,-6.3106,-35.4789,27.89,66,97,6.34,BR,1706907751
177,brookings,44.3114,-96.7984,5.1,88,100,6.69,US,1706907752
178,sabang,5.8933,95.3214,27.63,75,16,3.31,ID,1706907753
179,bilibino,68.0546,166.4372,-29.37,91,37,2.48,RU,1706907753
180,san pedro de uraba,8.2752,-76.3764,27.07,84,98,3.95,CO,1706907754
181,lompoc,34.6391,-120.4579,16.4,68,75,5.66,US,1706907755
182,al jawf,29.5,38.75,8.26,60,8,2.95,SA,1706907755
183,okhotsk,59.3833,143.3,-24.39,80,36,6.15,RU,1706907756
184,pathein,16.7833,94.7333,20.65,75,100,3.49,MM,1706907757
185,kokopo,-4.352,152.2633,26.09,81,94,1.49,PG,1706907758
186,san patricio,28.017,-97.5169,23.92,77,100,6.81,US,1706907759
187,saint-philippe,-21.3585,55.7679,24.77,82,72,6.63,RE,1706907759
188,le vauclin,14.5452,-60.8388,30.03,66,9,4.12,MQ,1706907479
189,kyzylorda,44.8528,65.5092,-8.04,92,91,2.27,KZ,1706907614
190,brandon,27.9378,-82.2859,23.49,57,0,5.66,US,1706907761
191,constantia,44.1833,28.65,2.61,76,84,5.1,RO,1706907762
192,acajutla,13.5928,-89.8275,28.85,57,3,3.92,SV,1706907763
193,tofol,5.3248,163.0078,28.22,81,100,7.06,FM,1706907763
194,codrington,-38.2667,141.9667,11.86,77,1,2.59,AU,1706907764
195,mandalgovi,45.7625,106.2708,-20.81,81,0,1.63,MN,1706907765
196,tsiombe,-25.3,45.4833,22.91,76,95,7.51,MG,1706907765
197,sydney mines,46.2367,-60.2177,0.63,94,100,3.09,CA,1706907766
198,emerald,-23.5333,148.1667,24.08,87,0,2.65,AU,1706907767
199,leo,11.1,-2.1,25.21,18,5,4.05,BF,1706907767
200,ust'-kut,56.7938,105.7672,-33.09,100,71,0.89,RU,1706907768
201,graaff-reinet,-32.2522,24.5308,24.4,39,100,2.44,ZA,1706907769
202,nikolayevsk-on-amure,53.1406,140.73,-23.63,93,68,2.24,RU,1706907769
203,inarajan village,13.2736,144.7484,25.78,80,10,8.83,GU,1706907770
204,colonia,50.9333,6.95,9.42,80,100,6.69,DE,1706907485
205,iskateley,67.6803,53.1512,-6.1,89,100,10.28,RU,1706907771
206,minot,48.2325,-101.2963,6.06,81,100,5.66,US,1706907772
207,weno,7.4515,151.8468,27.23,83,83,9.48,FM,1706907773
208,bandon,51.7469,-8.7425,11.77,92,100,6.65,IE,1706907774
209,labrador city,52.9463,-66.9114,-17.68,48,85,1.01,CA,1706907774
210,el tambo,1.4181,-77.3968,14.42,97,100,1.4,CO,1706907775
211,manaure,11.7751,-72.4445,26.12,82,89,8.06,CO,1706907776
212,brad,46.1333,22.7833,1.98,91,98,1.19,RO,1706907767
213,lillehammer,61.1146,10.4674,4.98,86,27,4.18,NO,1706907588
214,puerto baquerizo moreno,-0.9,-89.6,25.7,84,100,6.51,EC,1706907626
215,puerto san jose,13.9256,-90.8244,29.57,54,1,4.51,GT,1706907778
216,bahia de kino,28.8333,-111.9333,22.73,51,0,5.48,MX,1706907779
217,bambari,5.768,20.6757,26.83,21,81,1.15,CF,1706907779
218,salekhard,66.53,66.6019,-16.34,98,98,3.04,RU,1706907753
219,grenaa,56.4158,10.8783,8.12,96,100,10.57,DK,1706907781
220,shingu,33.7333,135.9833,2.35,72,2,2.62,JP,1706907782
221,qaqortoq,60.7167,-46.0333,-19.41,82,92,3.27,GL,1706907782
222,ghazni,33.5536,68.4269,-3.23,95,100,2.53,AF,1706907624
223,jamestown,42.097,-79.2353,1.12,95,100,3.6,US,1706907784
224,kristiansund,63.1115,7.732,8.36,81,75,13.89,NO,1706907784
225,cabo san lucas,22.8909,-109.9124,27.56,70,12,1.79,MX,1706907785
226,avallon,47.4833,3.9,5.38,90,87,1.79,FR,1706907611
227,alofi,-19.0595,-169.9187,26.98,82,100,7.44,NU,1706907787
228,parry sound,45.3501,-80.033,-2.09,81,29,3.34,CA,1706907677
229,lospalos,-8.5186,127.0025,22.93,94,51,2.44,TL,1706907788
230,bull savanna,17.8868,-77.5902,24.82,64,15,2.52,JM,1706907789
231,fort bragg,35.139,-79.006,19.39,47,0,4.63,US,1706907790
232,basco,20.4487,121.9702,23.72,85,91,8.68,PH,1706907790
233,swakopmund,-22.6833,14.5333,18.88,90,97,0.45,NA,1706907791
234,machico,32.7,-16.7667,18.73,79,40,3.6,PT,1706907792
235,burang,30.25,81.1667,-11.46,73,4,0.78,CN,1706907792
236,taiyuan,37.8694,112.5603,-3.08,74,20,4.0,CN,1706907793
237,fale old settlement,-9.3852,-171.2468,28.54,74,100,4.92,TK,1706907794
238,mengcheng chengguanzhen,33.2661,116.566,-2.35,95,100,4.53,CN,1706907710
239,viqueque,-8.8673,126.3658,25.87,88,97,1.83,TL,1706907795
240,sur,22.5667,59.5289,24.37,74,1,2.65,OM,1706907793
241,necochea,-38.5473,-58.7368,36.43,23,100,5.76,AR,1706907796
242,flying fish cove,-10.4217,105.6791,25.82,88,75,1.03,CX,1706907797
243,la passe,45.5549,-0.8967,9.99,91,11,2.71,FR,1706907798
244,pisco,-13.7,-76.2167,25.01,78,100,4.93,PE,1706907798
245,muynoq,43.7683,59.0214,-4.93,88,41,2.74,UZ,1706907799
246,cole harbour,44.6724,-63.4751,1.09,95,100,4.02,CA,1706907800
247,opuwo,-18.0607,13.84,22.46,66,93,2.64,NA,1706907630
248,westport,41.1415,-73.3579,6.87,76,100,5.66,US,1706907801
249,eyl,7.9803,49.8164,23.69,85,98,4.67,SO,1706907802
250,muisne,0.6,-80.0333,25.29,91,100,4.75,EC,1706907803
251,valparaiso,-33.0393,-71.6273,33.8,45,11,9.77,CL,1706907540
252,vadso,70.0744,29.7487,-5.91,93,100,6.69,NO,1706907804
253,coquimbo,-29.9533,-71.3436,19.85,82,75,4.63,CL,1706907590
254,tazacorte,28.629,-17.9293,20.08,43,0,3.6,ES,1706907805
255,cidade velha,14.9167,-23.6167,24.26,60,0,5.66,CV,1706907806
256,port alberni,49.2413,-124.8028,12.84,95,100,0.45,CA,1706907807
257,palmeira das missoes,-27.8994,-53.3136,26.06,76,0,3.9,BR,1706907808
258,sungai penuh,-2.0833,101.3833,18.69,98,100,0.55,ID,1706907808
259,urengoy,65.9667,78.3667,-12.3,92,100,5.57,RU,1706907809
260,san sebastian de la gomera,28.0916,-17.1133,20.21,68,0,1.54,ES,1706907810
261,dudinka,69.4058,86.1778,-13.51,93,100,10.73,RU,1706907810
262,kununurra,-15.7667,128.7333,27.99,94,67,2.06,AU,1706907811
263,howard springs,-12.497,131.047,28.95,88,100,5.14,AU,1706907811
264,gotse delchev,41.5667,23.7333,0.68,82,36,1.99,BG,1706907812
265,port alfred,-33.5906,26.891,23.62,87,100,8.96,ZA,1706907813
266,felipe carrillo puerto,19.5833,-88.05,29.07,42,81,1.53,MX,1706907813
267,berdigestyakh,62.0989,126.6992,-28.01,99,79,2.35,RU,1706907814
268,melo,-32.3667,-54.1833,31.73,29,0,7.41,UY,1706907815
269,ponta delgada,37.7333,-25.6667,18.44,77,20,4.12,PT,1706907647
270,srivardhan,18.0333,73.0167,21.55,73,11,2.2,IN,1706907817
271,belyy yar,53.6039,91.3903,-18.06,92,100,0.0,RU,1706907817
272,kattivakkam,13.2167,80.3167,26.05,75,100,3.2,IN,1706907665
273,enshi,30.3,109.4833,3.6,98,100,1.0,CN,1706907819
274,port douglas,-16.4833,145.4667,27.1,86,99,1.64,AU,1706907819
275,taroa,8.7058,171.2275,27.11,85,100,9.06,MH,1706907820
276,crane,31.3974,-102.3501,23.17,21,51,9.6,US,1706907821
277,bastad,56.4269,12.8534,8.17,97,100,10.8,SE,1706907822
278,oltinko'l,40.8011,72.1634,-0.2,48,52,2.83,UZ,1706907823
279,huarmey,-10.0681,-78.1522,26.37,73,100,4.41,PE,1706907824
280,novaya igirma,57.1334,103.9112,-31.49,100,88,0.76,RU,1706907824
281,kenora,49.8167,-94.4337,1.57,76,13,2.94,CA,1706907825
282,falkenberg,56.9055,12.4912,6.25,100,66,11.15,SE,1706907638
283,ceeldheer,3.8488,47.1806,25.56,81,96,7.02,SO,1706907827
284,nouadhibou,20.931,-17.0347,20.38,67,3,5.64,MR,1706907606
285,antalaha,-14.9003,50.2788,24.61,89,69,2.3,MG,1706907829
286,den burg,53.0542,4.7972,9.42,91,100,8.75,NL,1706907721
287,mejit,10.2753,170.8646,26.58,86,99,10.29,MH,1706907830
288,leticia,-4.2153,-69.9406,28.99,70,75,7.2,CO,1706907830
289,utrik,11.2278,169.8474,26.32,87,99,9.58,MH,1706907831
290,shakawe,-18.3667,21.85,21.92,69,71,1.77,BW,1706907832
291,alaghsas,17.0187,8.0168,17.39,17,66,7.92,NE,1706907832
292,tarawa,1.419,172.984,31.05,79,20,4.63,KI,1706907833
293,ataq,14.5377,46.8319,18.23,70,13,2.31,YE,1706907834
294,vilyuchinsk,52.9306,158.4028,-18.93,81,13,4.38,RU,1706907835
295,brazzaville,-4.2658,15.2832,25.06,81,83,0.71,CG,1706907835
296,saint-joseph,-21.3667,55.6167,24.21,81,39,6.91,RE,1706907857
297,kirakira,-10.4544,161.9205,28.57,79,96,4.09,SB,1706907858
298,sinop,41.7711,34.8709,4.18,72,100,9.11,TR,1706907628
299,nabire,-3.3667,135.4833,24.79,93,100,1.45,ID,1706907859
300,extrema,-22.8547,-46.3183,19.13,95,99,1.59,BR,1706907860
301,lorengau,-2.0226,147.2712,27.74,81,99,3.73,PG,1706907861
302,kijang,35.2442,129.2139,6.2,74,99,3.93,KR,1706907862
303,al kharijah,25.4514,30.5464,10.03,45,0,2.91,EG,1706907686
304,saint augustine beach,29.8505,-81.2654,22.25,32,0,4.63,US,1706907863
305,shiyan,32.6475,110.7781,-3.07,93,100,1.36,CN,1706907864
306,burao,9.5221,45.5336,19.95,80,56,5.39,SO,1706907865
307,yanam,16.7333,82.2167,21.17,92,100,0.68,IN,1706907866
308,choibalsan,48.0667,114.5,-26.47,88,3,3.48,MN,1706907652
309,minas de marcona,-15.2119,-75.1103,22.41,66,82,6.01,PE,1706907867
310,masuguru,-11.3667,38.4167,23.17,97,100,1.29,TZ,1706907681
311,toamasina,-18.1667,49.3833,26.0,89,75,5.14,MG,1706907869
312,saposoa,-6.934,-76.7716,32.71,50,100,1.82,PE,1706907869
313,praia da vitoria,38.7333,-27.0667,17.09,93,61,4.65,PT,1706907871
314,amfissa,38.525,22.3731,8.62,68,99,2.72,GR,1706907871
315,gelemso,8.8167,40.5167,16.81,86,57,2.54,ET,1706907872
316,college,64.8569,-147.8028,-33.94,68,75,0.0,US,1706907873
317,udachny,66.4167,112.4,-30.97,77,80,1.48,RU,1706907874
318,bonthe,7.5264,-12.505,26.64,83,34,4.25,SL,1706907875
319,east london,-33.0153,27.9116,24.33,84,100,8.56,ZA,1706907772
320,zaysan,47.4667,84.8667,-9.71,88,100,0.75,KZ,1706907876
321,dadukou,26.5479,101.7054,7.77,79,1,0.8,CN,1706907877
322,stephenville,32.2207,-98.2023,18.44,88,100,4.12,US,1706907878
323,ixtapa,20.7,-105.2,26.79,69,0,5.66,MX,1706907878
324,usol'ye,59.4268,56.6808,-10.63,89,97,4.75,RU,1706907879
325,inda silase,14.1031,38.2829,15.95,49,52,0.35,ET,1706907880
326,kailua-kona,19.6406,-155.9956,24.98,99,75,10.29,US,1706907881
327,lashkar gah,31.5938,64.3716,9.95,76,1,4.66,AF,1706907881
328,smidovich,48.6,133.8167,-28.1,96,6,3.39,RU,1706907882
329,hermanus,-34.4187,19.2345,24.89,82,0,3.34,ZA,1706907883
330,fort st. john,56.2499,-120.8529,-3.06,93,20,2.57,CA,1706907883
331,kainan,34.15,135.2,6.02,73,8,5.44,JP,1706907884
332,zhigalovo,54.8097,105.1578,-30.44,100,88,0.77,RU,1706907885
333,puro,12.4841,123.3827,24.4,88,17,3.35,PH,1706907720
334,bodo,67.28,14.405,2.1,86,75,7.72,NO,1706907888
335,kikwit,-5.041,18.8162,22.6,94,100,1.37,CD,1706907549
336,ca mau,9.1769,105.15,22.58,94,3,1.63,VN,1706907741
337,uvira,-3.4067,29.1458,22.88,86,100,0.87,CD,1706907539
338,najran,17.4924,44.1277,17.36,45,32,2.02,SA,1706907891
339,forster,-32.1667,152.5167,22.94,71,81,3.2,AU,1706907891
340,sangueya,10.7,-14.3667,24.0,72,0,1.61,GN,1706907892
341,ilomantsi,62.6716,30.9328,-14.61,100,94,1.89,FI,1706907893
342,lycksele,64.5954,18.6735,-3.07,93,20,3.6,SE,1706907681
343,mwinilunga,-11.7358,24.4293,16.94,97,100,1.44,ZM,1706907894
344,blackfoot,43.1905,-112.345,4.47,99,100,3.11,US,1706907895
345,goz beida,13.95,20.55,21.1,17,87,4.75,TD,1706907896
346,laguna,38.421,-121.4238,14.61,67,0,6.17,US,1706907896
347,saldanha,-33.0117,17.9442,18.35,97,47,2.4,ZA,1706907897
348,brisas de zicatela,15.8369,-97.0419,29.29,61,40,4.12,MX,1706907898
349,san juan de miraflores,-12.1629,-76.9635,25.29,77,100,5.17,PE,1706907898
350,thames,-37.1333,175.5333,18.06,79,71,5.9,NZ,1706907899
351,okeechobee,27.2439,-80.8298,24.42,52,75,2.06,US,1706907900
352,igarka,67.4667,86.5833,-13.16,95,100,7.97,RU,1706907828
353,mettupalayam,11.3,76.95,25.49,89,96,0.89,IN,1706907901
354,brokopondo,4.75,-55.1667,29.33,52,91,0.61,SR,1706907902
355,roma,43.2128,-75.4557,3.1,76,100,3.6,US,1706907317
356,vila franca do campo,37.7167,-25.4333,18.27,99,15,4.12,PT,1706907801
357,mao,39.8885,4.2658,9.31,93,0,3.09,ES,1706907904
358,kavaratti,10.5669,72.642,26.62,69,100,3.8,IN,1706907905
359,annau,37.8876,58.516,2.56,97,100,5.42,TM,1706907905
360,kibre mengist,5.8833,38.9833,14.96,56,76,0.89,ET,1706907906
361,qa'en,33.7265,59.1844,0.71,73,11,6.04,IR,1706907907
362,tuyum,9.9769,122.5582,24.85,85,6,4.34,PH,1706907907
363,pacific grove,36.6177,-121.9166,14.68,76,100,6.17,US,1706907908
364,padre bernardo,-15.35,-48.5,22.32,87,100,1.35,BR,1706907909
365,morant bay,17.8815,-76.4093,27.79,75,57,3.22,JM,1706907909
366,geraldton,-28.7667,114.6,21.23,83,6,3.6,AU,1706907910
367,cockburn town,21.4612,-71.1419,22.55,57,8,3.0,TC,1706907911
368,ternate,0.8,127.4,26.59,84,90,3.11,ID,1706907912
369,gudermes,43.3569,46.1053,2.69,78,100,1.77,RU,1706907912
370,leua,48.2156,18.6071,6.39,88,99,2.4,SK,1706907913
371,sao jose da coroa grande,-8.8978,-35.1478,27.41,71,78,4.73,BR,1706907914
372,kemise,10.7167,39.8667,18.98,90,78,1.46,ET,1706907914
373,rongelap,11.1635,166.8941,26.42,84,100,9.97,MH,1706907915
374,puerto ayacucho,5.6639,-67.6236,32.31,54,95,0.74,VE,1706907916
375,san antonio de pale,-1.4014,5.6325,27.79,79,97,2.63,GQ,1706907917
376,inyati,-19.6756,28.8469,16.49,82,1,4.14,ZW,1706907917
377,kuta,-8.7233,115.1723,25.97,94,40,2.24,ID,1706907918
378,muramvya,-3.2682,29.6079,14.21,94,87,0.51,BI,1706907919
379,saipan,15.1355,145.701,26.39,73,75,5.66,MP,1706907919
380,nyurba,63.2842,118.3319,-29.89,97,88,2.56,RU,1706907920
381,kirensk,57.7853,108.1119,-31.71,100,37,0.14,RU,1706907921
382,key west,24.5557,-81.7826,22.78,69,26,4.47,US,1706907751
383,siocon,7.7061,122.1353,24.38,86,34,2.55,PH,1706907922
384,ta`u,-14.2336,-169.5144,28.37,79,100,6.75,AS,1706907923
385,klaksvik,62.2266,-6.589,2.51,71,52,18.61,FO,1706907924
386,gumdag,39.2061,54.5906,5.33,63,100,1.97,TM,1706907924
387,ulsteinvik,62.3432,5.8487,9.31,87,100,8.05,NO,1706907799
388,porto novo,6.4965,2.6036,27.68,75,43,2.45,BJ,1706907776
389,santa vitoria do palmar,-33.5189,-53.3681,25.82,57,0,6.13,BR,1706907926
390,el calafate,-50.3408,-72.2768,14.04,66,86,7.86,AR,1706907731
391,sosnovo-ozerskoye,52.5249,111.5418,-34.26,100,78,0.52,RU,1706907928
392,argo,37.6333,22.7333,12.66,51,100,1.71,GR,1706907929
393,bena,11.2844,5.9347,22.8,17,9,4.26,NG,1706907930
394,coahuayana de hidalgo,18.7,-103.6583,30.36,46,0,3.83,MX,1706907930
395,golyshmanovo,56.3979,68.3728,-22.66,100,100,2.98,RU,1706907852
396,vurnary,55.4904,46.9648,-7.1,97,85,2.71,RU,1706907932
397,katsuura,35.1333,140.3,5.62,54,99,6.07,JP,1706907933
398,fougamou,-1.2154,10.5838,24.79,94,86,0.95,GA,1706907934
399,kiruna,67.8557,20.2251,-6.49,93,100,5.14,SE,1706907440
400,uglegorsk,49.0833,142.0333,-14.11,76,93,2.92,RU,1706907935
401,dunedin,-45.8742,170.5036,11.56,70,87,3.13,NZ,1706907935
402,ulladulla,-35.35,150.4667,20.98,75,94,2.44,AU,1706907936
403,kismayo,-0.3582,42.5454,26.19,84,94,5.54,SO,1706907937
404,yuanping,38.7153,112.7575,-5.09,64,47,0.65,CN,1706907937
405,ciudad lazaro cardenas,17.9583,-102.2,28.18,61,1,4.88,MX,1706907938
406,mar del plata,-38.0023,-57.5575,28.07,79,0,8.94,AR,1706907563
407,aripuana,-9.1667,-60.6333,27.32,90,97,0.35,BR,1706907940
408,pochinki,54.6988,44.8668,-3.43,90,100,6.2,RU,1706907941
409,mukalla,14.5425,49.1242,23.33,79,4,0.62,YE,1706907942
410,odacho-oda,35.1833,132.5,4.12,70,49,4.61,JP,1706907942
411,stornoway,58.2093,-6.3865,8.35,79,75,8.75,GB,1706907943
412,jinsha,32.0898,121.0735,1.66,94,100,5.7,CN,1706907944
413,veternik,45.2533,19.7594,5.14,75,85,2.76,RS,1706907944
414,lamar,33.6668,-95.5836,19.99,79,100,5.14,US,1706907945
415,horta,38.5333,-28.6333,16.8,90,40,6.17,PT,1706907760
416,al burayqah,30.4062,19.5739,15.19,59,12,4.2,LY,1706907946
417,bang mun nak,16.0278,100.3792,28.94,56,76,2.37,TH,1706907732
418,male,4.1748,73.5089,28.0,78,90,5.82,MV,1706907662
419,aykhal,66.0,111.5,-27.3,68,29,1.72,RU,1706907949
420,nelson bay,-32.7167,152.15,23.33,72,95,3.58,AU,1706907950
421,happy valley-goose bay,53.3168,-60.3315,-19.29,93,9,1.83,CA,1706907951
422,el bauga,18.262,33.9081,13.52,24,0,5.76,SD,1706907952
423,kerikeri,-35.2268,173.9474,18.76,83,53,4.44,NZ,1706907952
424,salalah,17.0151,54.0924,22.95,81,26,1.24,OM,1706907721
425,novodvinsk,64.4165,40.8122,-8.14,99,96,1.25,RU,1706907953
426,varadero,23.1536,-81.2514,24.42,58,39,3.79,CU,1706907954
427,lepsy,46.235,78.9456,-11.04,93,15,2.9,KZ,1706907955
428,tosontsengel,48.7567,98.2839,-28.22,87,40,0.7,MN,1706907955
429,ranau,5.9538,116.6641,20.95,98,100,0.16,MY,1706907930
430,anzio,41.4853,12.6179,11.91,66,4,1.78,IT,1706907697
431,rio grande,-32.035,-52.0986,24.59,67,0,7.15,BR,1706907845
432,boras,57.721,12.9401,6.57,96,100,7.08,SE,1706907958
433,nuuk,64.1835,-51.7216,-14.66,72,75,3.09,GL,1706907865
434,aasiaat,68.7098,-52.8699,-25.56,98,100,1.9,GL,1706907959
435,baruun-urt,46.6806,113.2792,-30.21,99,34,2.43,MN,1706907960
436,orkney,-26.9802,26.6727,20.59,49,74,1.55,ZA,1706907960
437,port augusta,-32.5,137.7667,22.56,53,0,2.45,AU,1706907961
438,choele choel,-39.2667,-65.6833,39.05,8,0,10.1,AR,1706907962
439,byron bay,-28.65,153.6167,25.95,84,36,2.12,AU,1706907963
440,newman,37.3138,-121.0208,15.59,81,62,1.34,US,1706907963
441,petauke,-14.2426,31.3253,17.88,93,4,2.08,ZM,1706907964
442,olbia,40.9214,9.4856,7.03,93,0,1.54,IT,1706907965
443,howrah,22.5892,88.3103,20.0,94,0,2.57,IN,1706907965
444,pompeu,-19.2244,-44.9353,23.52,80,100,1.79,BR,1706907966
445,mount pearl,47.5166,-52.7813,-1.08,83,100,0.89,CA,1706907703
446,gilgit,35.9221,74.3087,-2.62,49,49,2.58,PK,1706907648
447,agat village,13.3886,144.6585,26.06,76,0,4.63,GU,1706907968
448,revda,56.801,59.9303,-17.25,99,97,2.21,RU,1706907969
449,diego de almagro,-26.3667,-70.05,27.28,33,31,5.08,CL,1706907970
450,puerto carreno,6.189,-67.4859,34.42,45,99,1.46,CO,1706907971
451,altai,46.3722,96.2583,-17.49,65,94,1.34,MN,1706907971
452,aksu,41.1231,80.2644,-2.92,63,88,2.32,CN,1706907972
453,muli,2.9167,73.5667,27.96,78,98,5.18,MV,1706907973
454,half moon bay,37.4636,-122.4286,14.94,70,75,7.2,US,1706907974
455,gargalianoi,37.0667,21.6333,8.53,71,100,1.33,GR,1706907735
456,pagar alam,-4.0167,103.2667,20.37,98,100,1.34,ID,1706907975
457,idil,37.3411,41.8895,-1.04,93,40,2.06,TR,1706907975
458,groningen,53.25,6.75,10.01,88,75,7.72,NL,1706907805
459,kodinsk,58.6881,99.1844,-26.42,100,78,0.18,RU,1706907973
460,soligalich,59.0778,42.2864,-12.12,98,100,1.81,RU,1706907978
461,kievka,50.2619,71.5514,-10.0,94,100,8.64,KZ,1706907978
462,ploneour-lanvern,47.9,-4.2833,10.18,93,100,1.54,FR,1706907780
463,promissao,-21.5367,-49.8581,31.77,31,98,3.81,BR,1706907980
464,jieshou,33.2634,115.3611,-2.48,96,100,4.31,CN,1706907980
465,camargo,27.6667,-105.1667,22.67,14,0,13.51,MX,1706907981
466,lima duarte,-21.8425,-43.7931,20.75,97,100,1.07,BR,1706907982
467,manokwari,-0.8667,134.0833,25.48,84,100,1.93,ID,1706907983
468,arraial do cabo,-22.9661,-42.0278,26.92,83,75,2.06,BR,1706907983
469,borkum,53.5809,6.6915,9.96,89,100,11.71,DE,1706907984
470,novo aripuana,-5.1206,-60.3797,28.85,74,85,1.28,BR,1706907985
471,cayeli,41.0923,40.7292,6.42,67,76,1.47,TR,1706907986
472,tal,35.4791,72.2439,-3.88,81,100,2.76,PK,1706907986
473,taltal,-25.4,-70.4833,21.84,74,28,1.54,CL,1706907987
474,natal,-5.795,-35.2094,27.85,71,68,5.52,BR,1706907806
475,kowon-up,39.4381,127.2431,-2.77,96,100,1.04,KP,1706907988
476,chambas,22.1928,-78.9136,24.65,46,99,4.24,CU,1706907989
477,thief river falls,48.1191,-96.1812,4.53,81,0,4.63,US,1706907831
478,gardelegen,52.5252,11.3952,8.78,86,100,8.38,DE,1706907990
479,moscow,55.7522,37.6156,-2.01,89,100,5.9,RU,1706907569
480,la puebla de montalban,39.863,-4.3592,10.85,69,38,2.37,ES,1706907992
481,viedma,-40.8135,-62.9967,35.79,27,57,4.57,AR,1706907993
482,champerico,14.3,-91.9167,33.3,63,12,6.13,GT,1706907994
483,mount gambier,-37.8333,140.7667,11.5,73,0,1.44,AU,1706907994
484,xianning,29.8833,114.2167,-0.28,96,100,4.48,CN,1706907995
485,berber,18.0216,33.983,14.18,22,0,5.44,SD,1706907996
486,nevel'sk,46.6733,141.8633,-9.07,67,100,8.37,RU,1706907996
487,goshainganj,26.5833,82.3833,10.47,66,0,3.98,IN,1706907997
488,wanning,18.8003,110.3967,20.75,92,30,2.14,CN,1706907998
489,poxoreo,-15.8372,-54.3892,29.54,54,100,2.61,BR,1706907998
490,warmbaths,-24.8833,28.2833,20.26,51,3,3.63,ZA,1706907999
491,akhty,41.4597,47.7312,-1.86,80,75,2.27,RU,1706908000
492,san ignacio,17.1561,-89.0714,30.08,58,40,3.09,BZ,1706908001
493,bel ombre,-4.6167,55.4167,27.84,78,100,8.04,SC,1706908001
494,boali,4.8005,18.1275,27.22,24,43,1.62,CF,1706908002
495,makubetsu,45.3714,141.8211,-7.42,68,100,7.54,JP,1706908003
496,ain oussera,35.4514,2.9058,8.2,79,1,4.2,DZ,1706908004
497,juan griego,11.0817,-63.9655,27.81,71,5,4.21,VE,1706908005
498,amungan,15.3652,119.9582,23.91,72,44,2.04,PH,1706908005
499,holualoa,19.6228,-155.9522,22.91,99,75,10.29,US,1706908006
500,kanchanaburi,14.6333,99.1,23.11,75,22,1.49,TH,1706908007
501,belozersk,60.0326,37.7957,-5.01,94,100,5.36,RU,1706908007
502,gao,16.6362,1.637,19.85,12,94,5.38,ML,1706908008
503,druzhba,52.0428,33.9453,-2.06,90,100,6.15,UA,1706908006
504,kyosai,34.8503,128.5886,8.0,72,99,6.27,KR,1706908009
505,naze,28.3667,129.4833,18.57,86,99,2.55,JP,1706908010
506,meizhou,24.2977,116.1072,18.37,90,86,1.29,CN,1706908011
507,hounde,11.5,-3.5167,27.64,15,9,3.77,BF,1706908011
508,priozersk,61.0393,30.1291,-4.95,85,45,3.18,RU,1706908013
509,urangan,-25.3,152.9,26.22,91,7,2.68,AU,1706908014
510,grand falls-windsor,48.9332,-55.6649,-0.28,90,100,0.89,CA,1706908014
511,touros,-5.1989,-35.4608,27.71,75,11,6.55,BR,1706908015
512,mont-laurier,46.5501,-75.4993,-3.07,85,100,3.37,CA,1706908016
513,tolanaro,-25.0319,46.9987,23.24,76,100,5.58,MG,1706908017
514,magway,20.15,94.9167,19.76,60,0,1.24,MM,1706908017
515,gaspe,48.8334,-64.4819,-6.9,95,100,2.73,CA,1706908018
516,songjianghe,42.1859,127.479,-19.41,97,100,0.99,CN,1706908018
517,tsengel,49.4783,100.8894,-23.65,94,71,1.86,MN,1706908019
518,halifax,44.6453,-63.5724,1.38,96,100,4.02,CA,1706907601
519,agaro,7.85,36.65,18.69,79,81,0.84,ET,1706908020
520,pemangkat,1.1667,108.9667,25.4,89,100,3.51,ID,1706908021
521,north haven,41.3909,-72.8595,7.14,72,100,5.14,US,1706908022
522,nizhnesortymskiy,62.4397,71.7603,-21.81,100,93,3.61,RU,1706908023
523,cafayate,-26.073,-65.9761,27.64,45,53,4.06,AR,1706908023
524,kralendijk,12.15,-68.2667,26.39,83,11,6.36,BQ,1706907833
525,moose jaw,50.4001,-105.5344,9.56,49,0,5.53,CA,1706907878
526,nova vicosa,-17.8919,-39.3719,26.66,80,100,3.15,BR,1706908025
527,genhe,50.7833,121.5167,-36.4,100,89,1.04,CN,1706908026
528,vrangel',42.7297,133.0839,-12.43,69,1,4.35,RU,1706908026
529,atmore,31.0238,-87.4939,21.05,38,42,1.43,US,1706908027
530,palafrugell,41.9174,3.1631,11.86,89,6,2.27,ES,1706907798
531,burutu,5.3509,5.5076,27.44,77,62,1.94,NG,1706908029
532,trairi,-3.2778,-39.2689,27.67,83,64,6.41,BR,1706908029
533,smithers,54.7804,-127.1743,5.13,91,95,2.37,CA,1706908030
534,bamboo flat,11.7,92.7167,25.44,75,2,3.1,IN,1706908031
535,port moresby,-9.4431,147.1797,24.7,84,98,2.84,PG,1706907759
536,khewra,32.6479,73.0106,11.44,36,100,2.49,PK,1706908032
537,awjilah,29.1081,21.2869,13.85,52,100,1.87,LY,1706908033
538,kittila,67.6647,24.8936,-5.77,93,100,3.09,FI,1706908034
539,quemado de guines,22.7853,-80.2536,24.12,42,77,3.05,CU,1706908034
540,sarina,-21.4333,149.2167,24.78,1,24,1.13,AU,1706908035
541,fortuna,40.5982,-124.1573,12.03,84,75,1.79,US,1706908036
542,port saint john's,-31.6229,29.5448,23.94,83,99,7.13,ZA,1706908037
543,adana,36.985,35.2881,6.01,87,0,2.57,TR,1706907993
544,banda aceh,5.5577,95.3222,26.06,84,25,1.65,ID,1706908038
545,ha'il,27.5219,41.6907,5.01,48,0,2.06,SA,1706908039
546,mikhaylovka,50.06,43.2379,-0.68,86,94,6.27,RU,1706908040
547,nar'yan-mar,67.6713,53.087,-6.05,89,100,10.28,RU,1706908040
548,floro,61.5996,5.0328,7.98,93,75,6.69,NO,1706908041
549,oban,56.4127,-5.4706,9.65,92,100,7.66,GB,1706908042
550,danjiangkou,32.5428,111.5086,-3.32,96,100,0.71,CN,1706908042
551,sandnessjoen,66.0217,12.6316,6.06,100,100,10.8,NO,1706907829
552,rabaul,-4.1967,152.1721,27.25,77,93,2.05,PG,1706908044
553,orange farm,-26.4833,27.8667,19.45,33,66,1.39,ZA,1706907753
554,griffith,41.5284,-87.4237,8.07,82,40,6.17,US,1706908045
555,montmagny,48.9734,2.3469,8.27,96,100,5.14,FR,1706908046
556,york,40.1254,-77.0,7.64,57,94,5.79,US,1706908047
557,buala,-8.145,159.5921,27.87,84,49,2.39,SB,1706908047
558,konstantinovsk,47.5828,41.0922,-1.01,89,97,4.41,RU,1706908048
559,el granada,37.5027,-122.4694,14.95,69,75,7.2,US,1706908049
560,sidney,-33.8679,151.2073,23.64,71,75,4.12,AU,1706907840
