City_ID,City,Lat,Lng,Max Temp,Humidity,Cloudiness,Wind Speed,Country,Date
0,tazovsky,67.4667,78.7,-21.37,90,80,4.37,RU,1706555452
1,port-aux-francais,-49.35,70.2167,3.71,72,99,16.49,TF,1706555453
2,shar,49.5886,81.0453,-18.09,99,40,1.4,KZ,1706555453
3,edinburgh of the seven seas,-37.0676,-12.3116,16.84,75,40,9.91,SH,1706555454
4,polyarnyy,69.1989,33.4478,1.28,67,100,15.44,RU,1706555454
5,kapa'a,22.0752,-159.319,24.18,87,40,7.2,US,1706555455
6,adamstown,-25.066,-130.1015,24.55,76,100,4.59,PN,1706555456
7,grytviken,-54.2811,-36.5092,8.73,60,95,4.27,GS,1706555451
8,fort bragg,35.139,-79.006,15.08,41,0,5.66,US,1706555412
9,talcahuano,-36.7167,-73.1167,17.62,64,42,4.97,CL,1706555457
10,ust-nera,64.5667,143.2,-38.07,97,99,1.84,RU,1706555458
11,qaqortoq,60.7167,-46.0333,-22.82,77,10,2.0,GL,1706555459
12,ebon,4.582,168.6964,26.14,90,100,6.96,MH,1706555459
13,ilulissat,69.2167,-51.1,-21.99,71,75,2.06,GL,1706555361
14,ta`u,-14.2336,-169.5144,28.52,75,100,3.95,AS,1706554861
15,ancud,-41.8697,-73.8203,16.91,58,95,2.23,CL,1706555461
16,sao joao da barra,-21.6403,-41.0511,29.05,89,66,3.09,BR,1706555462
17,yellowknife,62.456,-114.3525,-2.55,100,100,8.23,CA,1706555463
18,utrik,11.2278,169.8474,26.02,69,100,5.02,MH,1706555463
19,vorgashor,67.5833,63.95,-16.32,93,30,4.15,RU,1706555464
20,kapuskasing,49.4169,-82.4331,-0.95,86,100,4.12,CA,1706555464
21,kingston,17.997,-76.7936,30.13,70,0,2.24,JM,1706555466
22,avarua,-21.2078,-159.775,28.03,89,100,3.6,CK,1706555433
23,thompson,55.7435,-97.8558,-1.7,89,99,4.23,CA,1706555467
24,constantia,44.1833,28.65,2.61,76,100,9.32,RO,1706555237
25,papatowai,-46.5619,169.4708,14.09,74,100,2.12,NZ,1706555429
26,badger,64.8,-147.5333,-23.82,78,100,1.24,US,1706554725
27,la ronge,55.1001,-105.2842,4.14,56,11,1.54,CA,1706555469
28,rio grande,-32.035,-52.0986,27.06,72,60,5.24,BR,1706555470
29,albany,42.6001,-73.9662,1.76,80,100,3.11,US,1706555471
30,puerto natales,-51.7236,-72.4875,18.25,52,40,7.72,CL,1706555472
31,boise,43.6135,-116.2035,10.64,75,0,3.6,US,1706555472
32,ushuaia,-54.8,-68.3,13.79,50,0,10.8,AR,1706555473
33,stanley,54.868,-1.6985,5.71,95,75,5.14,GB,1706555474
34,bilibino,68.0546,166.4372,-33.97,98,100,0.59,RU,1706555474
35,iskateley,67.6803,53.1512,-5.49,91,100,11.63,RU,1706554883
36,sungai penuh,-2.0833,101.3833,18.09,97,100,1.58,ID,1706555230
37,bethel,41.3712,-73.414,2.9,75,100,5.14,US,1706555476
38,nuuk,64.1835,-51.7216,-16.66,60,40,8.23,GL,1706554915
39,kodinsk,58.6881,99.1844,-28.64,100,22,0.63,RU,1706554619
40,hithadhoo,-0.6,73.0833,27.98,74,12,3.02,MV,1706555478
41,carboneras,37.0015,-1.9213,14.62,84,100,6.36,ES,1706555478
42,san patricio,28.017,-97.5169,20.97,41,47,1.5,US,1706555479
43,sarankhola,22.3082,89.7897,14.78,49,2,1.16,BD,1706555403
44,whitehorse,60.7161,-135.0538,-2.05,96,100,4.04,CA,1706555480
45,port saint john's,-31.6229,29.5448,25.42,89,100,7.52,ZA,1706554921
46,tegueste,28.5167,-16.3167,19.49,50,7,1.54,ES,1706555482
47,daru,-9.0763,143.2092,25.84,90,100,3.53,PG,1706555482
48,moab,38.5733,-109.5498,11.38,54,0,0.97,US,1706555483
49,punta arenas,-53.15,-70.9167,16.06,39,0,8.75,CL,1706555484
50,cidreira,-30.1811,-50.2056,24.85,74,62,3.02,BR,1706555484
51,yung shue wan,22.2333,114.1167,17.57,87,100,5.04,HK,1706555485
52,cannonvale,-20.2833,148.7,28.66,89,100,2.68,AU,1706554933
53,nuku'alofa,-21.1333,-175.2,26.19,83,40,2.57,TO,1706555486
54,antonio enes,-16.2325,39.9086,25.49,75,0,2.67,MZ,1706555487
55,hatillo,18.4863,-66.8254,29.5,71,2,1.34,PR,1706555487
56,susuman,62.7833,148.1667,-33.9,94,100,0.45,RU,1706555488
57,cabo san lucas,22.8909,-109.9124,29.78,60,75,5.14,MX,1706555488
58,okhotsk,59.3833,143.3,-25.68,81,6,3.67,RU,1706555489
59,port mathurin,-19.6833,63.4167,27.84,81,99,9.21,MU,1706555489
60,blackmans bay,-43.0167,147.3167,9.18,83,1,2.33,AU,1706555490
61,ust-tsilma,65.441,52.1498,-6.88,90,100,4.47,RU,1706555277
62,port elizabeth,-33.918,25.5701,21.29,89,0,10.29,ZA,1706555162
63,chonchi,-42.6128,-73.8092,20.56,42,97,1.33,CL,1706555492
64,bredasdorp,-34.5322,20.0403,24.49,46,32,7.91,ZA,1706555493
65,west island,-12.1568,96.8225,24.99,78,24,2.57,CC,1706555431
66,union city,37.5958,-122.0192,22.5,71,0,2.57,US,1706555494
67,smithers,54.7804,-127.1743,4.22,100,89,0.62,CA,1706555494
68,invercargill,-46.4,168.35,13.34,91,45,1.34,NZ,1706555495
69,east london,-33.0153,27.9116,27.05,76,100,6.72,ZA,1706555495
70,georgetown,5.4112,100.3354,27.96,83,40,1.54,MY,1706555496
71,margaret river,-33.95,115.0667,11.7,89,4,4.47,AU,1706555496
72,talnakh,69.4865,88.3972,-16.55,92,100,4.07,RU,1706555497
73,sanctuary point,-35.1114,150.629,23.19,88,95,4.39,AU,1706555497
74,antsohihy,-14.8796,47.9875,24.23,90,2,0.85,MG,1706555498
75,malango,-2.9627,119.9001,19.85,97,88,0.94,ID,1706555499
76,kindu,-2.95,25.95,22.6,96,100,1.31,CD,1706555499
77,konarka,19.9,86.1167,20.22,63,6,2.91,IN,1706555500
78,ribeira grande,38.5167,-28.7,17.22,88,40,7.72,PT,1706555500
79,naze,28.3667,129.4833,13.5,65,41,2.45,JP,1706555501
80,la tuque,47.4334,-72.7824,-3.86,68,100,3.09,CA,1706555502
81,manay,7.215,126.5397,24.66,97,100,2.98,PH,1706555502
82,bredy,52.4153,60.3411,-19.95,100,56,1.83,RU,1706555503
83,listowel,52.4464,-9.485,2.84,79,7,2.54,IE,1706555504
84,weno,7.4515,151.8468,25.97,89,100,3.09,FM,1706555504
85,lihue,21.9789,-159.3672,23.77,85,40,7.2,US,1706555505
86,sao gabriel da cachoeira,-0.1303,-67.0892,29.83,74,79,0.31,BR,1706555505
87,russellville,35.2784,-93.1338,17.86,47,0,1.54,US,1706555506
88,taltal,-25.4,-70.4833,22.8,69,22,2.88,CL,1706555507
89,tiksi,71.6872,128.8694,-25.97,98,94,3.05,RU,1706555507
90,waitangi,-43.9535,-176.5597,17.12,98,37,2.24,NZ,1706555508
91,loango,-4.6719,11.8312,26.39,90,99,2.04,CG,1706555508
92,isafjordur,66.0755,-23.124,-1.08,84,66,11.61,IS,1706555509
93,mejit,10.2753,170.8646,25.82,75,100,6.2,MH,1706555510
94,flin flon,54.7682,-101.865,3.91,75,75,3.6,CA,1706555510
95,basiawan,6.5342,125.4869,25.47,89,100,4.3,PH,1706555511
96,ghanzi,-21.5667,21.7833,21.4,78,100,7.04,BW,1706555512
97,longyearbyen,78.2186,15.6401,-3.09,86,75,8.23,SJ,1706555512
98,tobati,-25.25,-57.0667,38.15,21,88,2.56,PY,1706555513
99,bandar lampung,-5.4254,105.258,23.99,93,100,2.8,ID,1706555514
100,vila franca do campo,37.7167,-25.4333,18.27,99,86,9.42,PT,1706555515
101,kavaratti,10.5669,72.642,27.83,64,82,2.48,IN,1706555515
102,hermanus,-34.4187,19.2345,20.45,67,100,10.64,ZA,1706555516
103,kone,-21.0595,164.8658,23.66,86,75,0.37,NC,1706555516
104,iqaluit,63.7506,-68.5145,-30.73,61,100,1.34,CA,1706555517
105,port lincoln,-34.7333,135.8667,16.69,91,63,4.66,AU,1706555518
106,garoowe,8.4054,48.4845,23.8,70,11,7.39,SO,1706555518
107,tolanaro,-25.0319,46.9987,23.33,83,100,4.93,MG,1706555519
108,harper,4.375,-7.7169,27.6,78,2,4.7,LR,1706555520
109,ixtapa,20.7,-105.2,28.57,42,75,0.0,MX,1706555520
110,olonkinbyen,70.9221,-8.7187,-5.66,58,100,5.64,SJ,1706555521
111,ormara,25.2088,64.6357,23.23,77,99,5.18,PK,1706555521
112,anadyr,64.75,177.4833,-33.72,75,75,3.0,RU,1706555522
113,jamestown,42.097,-79.2353,0.86,96,100,4.63,US,1706555523
114,college,64.8569,-147.8028,-24.33,57,100,2.06,US,1706555431
115,sampit,-2.5333,112.95,23.63,96,93,0.39,ID,1706555523
116,saint-pierre,-21.3393,55.4781,24.82,94,75,2.06,RE,1706555524
117,aasiaat,68.7098,-52.8699,-27.86,98,100,1.76,GL,1706555524
118,tralee,52.2704,-9.7026,3.94,78,7,2.79,IE,1706555525
119,eno,62.8051,30.1542,2.28,89,84,5.64,FI,1706555526
120,korpilahti,62.0167,25.55,2.3,87,100,4.22,FI,1706555526
121,kuqa,41.7278,82.9364,-2.5,56,100,1.68,CN,1706555527
122,shubarshi,48.5872,57.1869,-14.94,93,60,3.07,KZ,1706555528
123,el granada,37.5027,-122.4694,21.98,71,0,2.57,US,1706555528
124,fale old settlement,-9.3852,-171.2468,29.14,71,86,1.74,TK,1706555529
125,zambezi,-13.5432,23.1047,23.53,63,67,2.38,ZM,1706555530
126,massaguet,12.4755,15.4365,25.29,13,0,4.21,TD,1706555530
127,tatarsk,55.219,75.9828,-12.49,96,100,2.96,RU,1706555531
128,panacan,9.2463,118.4082,25.02,83,69,6.88,PH,1706555533
129,youhao,47.8667,128.8333,-30.38,100,92,0.26,CN,1706555533
130,buguda,19.8167,84.8,18.86,76,67,0.82,IN,1706555534
131,chabahar,25.2919,60.643,23.07,58,98,5.97,IR,1706555451
132,chadan,51.2833,91.5833,-27.23,94,100,1.1,RU,1706555535
133,cedeira,43.6797,-8.0209,12.99,71,84,2.42,ES,1706555535
134,arkhangel'sk,64.5401,40.5433,2.06,86,40,7.0,RU,1706555536
135,lyantor,61.6195,72.1555,-24.06,100,84,2.58,RU,1706555078
136,ola,59.5833,151.2833,-21.36,82,84,3.72,RU,1706555537
137,cooper's town,26.8667,-77.5167,19.11,61,0,10.99,BS,1706555537
138,mount gambier,-37.8333,140.7667,11.33,93,9,2.41,AU,1706555538
139,sligo,54.2697,-8.4694,4.96,75,0,2.57,IE,1706555538
140,san pedro,14.35,121.0167,24.55,78,20,3.58,PH,1706555539
141,yarrawonga,-36.0167,146.0,19.17,69,0,2.46,AU,1706555539
142,baganga,7.5739,126.56,24.9,97,100,3.4,PH,1706555540
143,dwarka,22.2394,68.9678,22.18,80,21,4.36,IN,1706555541
144,lebu,-37.6167,-73.65,18.38,60,24,5.47,CL,1706555541
145,waingapu,-9.6567,120.2641,25.93,82,100,2.92,ID,1706555543
146,karratha,-20.7377,116.8463,26.16,73,44,5.76,AU,1706555543
147,petropavlovsk-kamchatsky,53.0452,158.6483,-15.3,93,0,5.0,RU,1706555266
148,djambala,-2.5447,14.7533,26.18,62,100,0.97,CG,1706555451
149,tual,-5.6667,132.75,28.27,78,100,8.37,ID,1706555545
150,namibe,-15.1961,12.1522,23.58,74,13,7.05,AO,1706555546
151,coari,-4.085,-63.1414,30.12,76,97,1.74,BR,1706555547
152,gladstone,-23.85,151.25,27.96,94,75,1.54,AU,1706555548
153,rainsville,34.4943,-85.8477,7.56,57,40,4.12,US,1706555549
154,eydhafushi,5.1033,73.0708,27.41,72,55,5.84,MV,1706555549
155,buka,40.8108,69.1986,4.86,83,100,2.77,UZ,1706555550
156,inda silase,14.1031,38.2829,17.7,46,100,0.97,ET,1706555550
157,saint-francois,46.4154,3.9054,9.8,87,0,0.51,FR,1706555551
158,holualoa,19.6228,-155.9522,24.88,82,40,7.2,US,1706555551
159,mayfield,36.7417,-88.6367,5.4,82,4,2.27,US,1706555298
160,nova sintra,14.8667,-24.7167,21.4,66,49,8.25,CV,1706555322
161,port macquarie,-31.4333,152.9167,23.83,91,100,3.2,AU,1706555553
162,kattivakkam,13.2167,80.3167,25.05,71,37,3.01,IN,1706555553
163,hobyo,5.3505,48.5268,26.22,83,9,7.29,SO,1706555554
164,beavercreek,39.7092,-84.0633,2.29,78,100,3.6,US,1706555554
165,ban phru nai,7.9333,98.5833,26.06,74,14,7.98,TH,1706555555
166,uturoa,-16.7333,-151.4333,28.34,78,100,2.78,PF,1706555556
167,puerto ayora,-0.7393,-90.3518,31.98,75,100,4.92,EC,1706555557
168,flying fish cove,-10.4217,105.6791,24.82,94,75,1.03,CX,1706555557
169,george town,5.4112,100.3354,27.96,83,40,1.54,MY,1706555496
170,lompoc,34.6391,-120.4579,25.01,42,0,3.09,US,1706555559
171,coquimbo,-29.9533,-71.3436,20.1,75,61,3.19,CL,1706555449
172,tilcara,-23.5776,-65.3509,13.61,72,66,3.4,AR,1706555560
173,amga,60.8953,131.9608,-43.47,100,99,0.69,RU,1706555561
174,rawatbhata,24.9333,75.5833,17.29,36,100,0.59,IN,1706555562
175,calama,-22.4667,-68.9333,26.0,25,0,8.48,CL,1706555533
176,urangan,-25.3,152.9,26.22,97,100,2.24,AU,1706555563
177,llallagua,-18.4167,-66.6333,15.25,42,73,1.53,BO,1706555564
178,el calafate,-50.3408,-72.2768,15.13,62,50,5.5,AR,1706555565
179,nouadhibou,20.931,-17.0347,22.99,40,0,4.63,MR,1706555565
180,stephenville,32.2207,-98.2023,21.44,33,0,5.14,US,1706555566
181,nova vicosa,-17.8919,-39.3719,28.5,74,98,4.9,BR,1706555566
182,raduzhny,62.0961,77.475,-23.48,100,100,2.71,RU,1706555351
183,saipan,15.1355,145.701,24.39,73,75,5.66,MP,1706555567
184,dudinka,69.4058,86.1778,-15.18,83,100,8.05,RU,1706555568
185,spring creek,40.7266,-115.5859,5.17,83,34,1.44,US,1706555568
186,enewetak,11.3474,162.3373,25.43,62,67,2.44,MH,1706555569
187,nadvoitsy,63.8667,34.3167,1.14,84,99,6.99,RU,1706555570
188,kerikeri,-35.2268,173.9474,18.28,90,5,0.45,NZ,1706555570
189,sciacca,37.5082,13.0881,10.02,74,0,2.7,IT,1706555571
190,belmonte,-15.8631,-38.8828,28.59,71,100,4.29,BR,1706555571
191,port alfred,-33.5906,26.891,26.12,78,56,3.69,ZA,1706555572
192,qarqaraly,49.4058,75.4742,-22.18,96,36,1.84,KZ,1706555572
193,wailua homesteads,22.0669,-159.378,23.44,89,40,7.2,US,1706555573
194,alaghsas,17.0187,8.0168,20.13,17,6,7.14,NE,1706555573
195,katsuura,35.1333,140.3,9.49,56,100,1.54,JP,1706555574
196,queenstown,-31.8976,26.8753,24.9,45,89,1.59,ZA,1706555476
197,margate,51.3813,1.3862,11.04,85,100,4.92,GB,1706555337
198,labrador city,52.9463,-66.9114,-24.05,53,0,2.06,CA,1706555577
199,zilair,52.2332,57.4392,-16.39,100,100,0.9,RU,1706555579
200,val-d'or,48.1002,-77.7828,-4.95,74,75,2.06,CA,1706555579
201,broken hill,-31.95,141.4333,23.72,36,4,6.24,AU,1706555523
202,priozersk,61.0393,30.1291,2.19,86,100,5.2,RU,1706555580
203,vadso,70.0744,29.7487,2.49,69,30,19.55,NO,1706555581
204,carnarvon,-24.8667,113.6333,23.09,79,0,9.65,AU,1706555582
205,puerto san jose,13.9256,-90.8244,33.15,39,0,3.31,GT,1706555582
206,hawaiian paradise park,19.5933,-154.9731,28.28,72,0,1.54,US,1706555583
207,kotabumi,-4.8333,104.9,23.88,95,99,3.0,ID,1706555584
208,aykhal,66.0,111.5,-20.4,99,100,1.2,RU,1706555584
209,kikwit,-5.041,18.8162,23.45,86,100,1.27,CD,1706555585
210,condom,43.9167,0.3333,13.69,87,100,5.4,FR,1706555586
211,meadow lakes,61.6247,-149.6011,-13.53,85,100,2.06,US,1706555586
212,timbuktu,16.7735,-3.0074,24.3,11,0,4.38,ML,1706555587
213,chui,-33.6971,-53.4616,24.99,54,77,4.85,UY,1706555587
214,n'zeto,-7.2312,12.8666,27.23,85,100,2.74,AO,1706555588
215,ringkobing,56.0901,8.244,5.99,100,100,1.97,DK,1706555588
216,haiku-pauwela,20.9219,-156.3051,26.13,75,40,9.26,US,1706555589
217,timimoun,29.2639,0.231,19.21,24,0,6.17,DZ,1706555589
218,salalah,17.0151,54.0924,25.05,69,0,2.06,OM,1706555326
219,tiquipaya,-17.3382,-66.2189,26.4,38,40,3.09,BO,1706555590
220,vernon,50.2581,-119.2691,7.39,93,100,1.54,CA,1706555591
221,taroa,8.7058,171.2275,26.47,85,100,8.14,MH,1706555592
222,minas de marcona,-15.2119,-75.1103,24.9,56,36,7.32,PE,1706555592
223,port augusta,-32.5,137.7667,20.31,69,0,5.09,AU,1706555593
224,tobelo,1.7284,128.0095,25.89,85,81,1.59,ID,1706555593
225,chilecito,-29.1619,-67.4974,34.75,18,0,3.32,AR,1706555521
226,meldorf,54.0918,9.0687,7.12,88,100,3.09,DE,1706555594
227,remire-montjoly,4.9167,-52.2667,25.02,100,100,3.6,GF,1706555595
228,antofagasta,-23.65,-70.4,23.27,70,19,3.98,CL,1706555437
229,al mindak,20.1588,41.2834,14.78,89,100,3.36,SA,1706555596
230,tadine,-21.55,167.8833,24.5,75,100,3.28,NC,1706555597
231,newman,37.3138,-121.0208,17.94,82,0,0.89,US,1706555329
232,kita,13.0349,-9.4895,27.55,10,20,1.74,ML,1706555598
233,beboto,8.2668,16.939,26.48,17,0,2.09,TD,1706555599
234,puerto madero,14.7208,-92.4215,33.11,49,20,4.12,MX,1706555599
235,mount pearl,47.5166,-52.7813,-2.14,94,100,3.6,CA,1706555600
236,boyolangu,-8.1181,111.8935,24.74,90,100,0.51,ID,1706555600
237,forster,-32.1667,152.5167,24.6,93,73,3.75,AU,1706555601
238,langepas,61.2544,75.2124,-23.78,100,100,2.64,RU,1706555601
239,wenchang,30.904,118.4887,7.08,80,100,1.03,CN,1706555603
240,bubaque,11.2833,-15.8333,26.57,59,85,5.77,GW,1706555603
241,barah,13.7,30.3667,19.17,20,100,4.92,SD,1706555604
242,tsiombe,-25.3,45.4833,22.78,80,16,7.11,MG,1706555604
243,point pedro,9.8167,80.2333,25.83,74,99,5.65,LK,1706555605
244,chardara,41.2547,67.9692,4.55,73,100,2.22,KZ,1706555605
245,vilyuchinsk,52.9306,158.4028,-14.48,88,83,3.6,RU,1706555606
246,olinda,-8.0089,-34.8553,29.85,70,40,5.14,BR,1706555606
247,despenaderos,-31.8163,-64.2899,34.86,39,0,4.54,AR,1706555607
248,mahibadhoo,3.7833,72.9667,27.63,77,30,7.77,MV,1706555607
249,portland,45.5234,-122.6762,16.56,75,75,3.58,US,1706555560
250,tobruk,32.0836,23.9764,12.56,55,19,7.72,LY,1706555608
251,poronaysk,49.2167,143.1167,-7.2,96,100,2.42,RU,1706555505
252,tura,25.5198,90.2201,12.7,60,0,1.45,IN,1706555609
253,tofol,5.3248,163.0078,27.51,71,100,5.39,FM,1706555610
254,puerto lempira,15.2667,-83.7667,32.08,66,40,4.12,HN,1706555611
255,ulan bator,47.9077,106.8832,-31.93,62,100,1.0,MN,1706555438
256,lake city,30.1897,-82.6393,16.56,44,0,4.12,US,1706555613
257,mar del plata,-38.0023,-57.5575,26.96,74,28,10.73,AR,1706555001
258,la cocha,-27.7773,-65.5704,34.25,26,90,2.08,AR,1706555614
259,rundu,-17.9333,19.7667,25.99,48,73,2.79,NA,1706555615
260,quellon,-43.1167,-73.6167,16.43,57,96,3.53,CL,1706555615
261,malpica,43.3228,-8.8105,13.52,78,88,2.08,ES,1706555616
262,kosh-agach,50.0,88.6667,-23.72,83,54,0.45,RU,1706555616
263,goondiwindi,-28.55,150.3167,23.68,93,100,3.71,AU,1706555617
264,novaya mayna,54.15,49.75,-5.83,94,100,3.41,RU,1706555617
265,codrington,-38.2667,141.9667,12.15,89,0,3.05,AU,1706555618
266,mugia,43.1041,-9.2179,14.95,84,62,2.68,ES,1706555499
267,mponela,-13.5319,33.7401,18.53,86,100,2.57,MW,1706555619
268,berdyansk,46.7503,36.7944,0.0,71,57,6.85,UA,1706555384
269,poso,-1.3959,120.7524,25.44,86,100,0.91,ID,1706555620
270,nar'yan-mar,67.6713,53.087,-5.36,91,100,11.58,RU,1706555468
271,al jawf,29.5,38.75,11.51,46,2,2.58,SA,1706555622
272,vyshniy volochek,57.5913,34.5645,1.29,82,100,5.23,RU,1706555513
273,lorengau,-2.0226,147.2712,27.9,80,100,4.73,PG,1706555623
274,linden,6.0,-58.3,31.21,51,96,2.44,GY,1706555623
275,noyemberyan,41.1724,44.9992,-2.02,84,100,0.84,AM,1706555624
276,chamical,-30.36,-66.314,37.81,16,0,6.29,AR,1706555625
277,selfoss,63.9331,-20.9971,1.14,90,100,12.81,IS,1706555625
278,touba,8.2833,-7.6833,28.85,15,98,0.95,CI,1706555626
279,saldanha,-33.0117,17.9442,18.82,87,95,6.52,ZA,1706555626
280,udachny,66.4167,112.4,-21.42,76,100,1.05,RU,1706555627
281,mount isa,-20.7333,139.5,24.87,88,100,0.0,AU,1706555627
282,houma,29.5958,-90.7195,17.0,44,0,3.13,US,1706555628
283,karoi,-16.8099,29.6925,20.08,79,72,1.04,ZW,1706555628
284,hammerfest,70.6634,23.6821,2.25,60,40,25.21,NO,1706555281
285,okha,53.5739,142.9478,-16.61,94,100,2.71,RU,1706555630
286,ulladulla,-35.35,150.4667,19.87,87,44,3.96,AU,1706555630
287,cadale,2.7603,46.3222,26.6,84,61,7.64,SO,1706555631
288,puerto baquerizo moreno,-0.9,-89.6,29.55,74,20,8.23,EC,1706555631
289,zaozersk,69.4005,32.4476,0.11,66,100,16.49,RU,1706555632
290,kiunga,-6.1219,141.2906,23.68,99,100,0.87,PG,1706555632
291,turbat,26.0023,63.044,21.53,69,98,4.51,PK,1706555633
292,hamilton,39.1834,-84.5333,3.14,84,100,3.09,US,1706555634
293,sisimiut,66.9395,-53.6735,-24.05,97,100,3.34,GL,1706555368
294,sorong,-0.8833,131.25,26.69,84,100,0.95,ID,1706555635
295,kodiak,57.79,-152.4072,-13.27,66,0,5.14,US,1706555636
296,labytnangi,66.6572,66.4183,-26.0,100,98,1.44,RU,1706555637
297,rongelap,11.1635,166.8941,26.33,75,97,5.43,MH,1706555637
298,coahuayana de hidalgo,18.7,-103.6583,31.08,43,100,2.54,MX,1706555638
299,kayangel,8.0823,134.7173,27.14,85,100,10.12,PW,1706555638
300,bandiagara,14.3501,-3.6104,24.65,13,36,3.81,ML,1706555639
301,klaksvik,62.2266,-6.589,8.51,79,76,13.32,FO,1706555640
302,magadan,59.5667,150.8,-20.47,74,32,3.55,RU,1706555640
303,mitu,1.1983,-70.1733,34.95,41,83,0.97,CO,1706555641
304,freeport,40.6576,-73.5832,4.65,74,100,8.75,US,1706555367
305,birao,10.2849,22.7882,24.42,15,89,3.16,CF,1706555642
306,gidam,18.9833,81.4,16.74,45,6,0.67,IN,1706555642
307,morehead city,34.7229,-76.726,14.0,58,75,6.69,US,1706555643
308,pekanbaru,0.5333,101.45,26.18,94,100,1.54,ID,1706555644
309,meridian,43.6121,-116.3915,10.82,76,0,4.12,US,1706555644
310,hilo,19.7297,-155.09,28.4,58,0,1.54,US,1706555645
311,puerto colombia,10.9878,-74.9547,32.05,76,14,9.06,CO,1706555645
312,mstera,56.3789,41.92,-5.79,93,100,4.88,RU,1706555646
313,zaragoza,41.6561,-0.8773,11.38,78,75,0.51,ES,1706555229
314,ulanhot,46.0833,122.0833,-21.59,82,79,0.9,CN,1706555647
315,vila velha,-20.3297,-40.2925,30.97,79,20,9.26,BR,1706555532
316,keflavik,64.0049,-22.5624,1.24,75,75,13.89,IS,1706555648
317,lerwick,60.1545,-1.1494,7.0,80,20,6.42,GB,1706555649
318,thunder bay,48.4001,-89.3168,-1.01,93,100,2.57,CA,1706555649
319,usogorsk,63.4106,48.6872,-4.63,94,100,4.88,RU,1706555650
320,caleta de carquin,-11.0925,-77.6267,27.0,70,39,5.74,PE,1706555650
321,santana,-0.0583,-51.1817,31.1,70,75,5.14,BR,1706555651
322,chalinze,-6.6378,38.354,23.71,90,82,1.98,TZ,1706555651
323,kristiansund,63.1115,7.732,6.36,56,0,6.69,NO,1706555608
324,nellore,14.4333,79.9667,20.47,79,93,1.17,IN,1706555652
325,kombissiri,12.0656,-1.3375,26.99,14,2,3.67,BF,1706555653
326,kuta,-8.7233,115.1723,26.97,88,20,1.03,ID,1706555653
327,argo,37.6333,22.7333,8.21,83,90,3.2,GR,1706555654
328,cherdyn',60.403,56.4787,-16.8,100,100,1.57,RU,1706555654
329,douglas,41.3,-96.167,9.62,63,0,4.63,US,1706555655
330,touros,-5.1989,-35.4608,28.99,68,15,6.62,BR,1706555655
331,stjordalshalsen,63.4681,10.9262,5.0,56,0,3.09,NO,1706555656
332,assab,13.0092,42.7394,25.4,85,52,3.09,ER,1706555656
333,colonia,50.9333,6.95,10.79,77,0,4.12,DE,1706555454
334,turpan,42.9333,89.1667,-2.9,50,100,0.58,CN,1706555408
335,kavieng,-2.5744,150.7967,28.18,78,100,4.15,PG,1706555403
336,bardai,11.65,7.2333,22.08,15,82,4.41,NG,1706555659
337,alipur,29.3846,70.9116,15.65,33,100,2.18,PK,1706555659
338,atherton,53.5237,-2.4935,11.83,96,100,0.89,GB,1706555660
339,la passe,45.5549,-0.8967,12.21,88,100,4.64,FR,1706555661
340,kampong thom,12.7111,104.8887,22.51,61,98,1.89,KH,1706555661
341,zhanaozen,43.3,52.8,-3.63,86,91,4.4,KZ,1706555662
342,nushki,29.5542,66.0215,16.62,57,100,2.55,PK,1706555663
343,vanino,49.0869,140.2543,-10.04,79,100,3.17,RU,1706555663
344,manakara,-22.1333,48.0167,24.48,78,100,3.38,MG,1706555664
345,lakatoro,-16.0999,167.4164,26.2,80,100,2.85,VU,1706555664
346,noosa heads,-26.3833,153.15,25.74,96,100,4.73,AU,1706555666
347,lethem,3.3803,-59.7968,38.47,25,4,4.31,GY,1706555667
348,gumdag,39.2061,54.5906,4.1,68,46,6.0,TM,1706555668
349,arraial do cabo,-22.9661,-42.0278,27.98,78,40,3.6,BR,1706555669
350,pisco,-13.7,-76.2167,31.03,51,0,5.66,PE,1706555669
351,yuncheng,35.0231,110.9928,1.19,71,7,2.44,CN,1706555621
352,hovd,48.0056,91.6419,-21.71,92,27,0.5,MN,1706555671
353,ipilan,8.8431,117.9033,24.99,84,87,6.0,PH,1706555671
354,guerrero negro,27.9769,-114.0611,23.07,30,16,2.18,MX,1706555672
355,prado,-17.3411,-39.2208,28.09,76,100,5.27,BR,1706555673
356,luena,-11.7833,19.9167,18.92,94,86,1.8,AO,1706555674
357,nabire,-3.3667,135.4833,24.88,93,100,1.55,ID,1706555674
358,sai buri,6.7013,101.6168,24.37,86,56,3.96,TH,1706555675
359,la quiaca,-22.1024,-65.593,17.48,41,94,8.4,AR,1706555675
360,pimentel,-6.8367,-79.9342,30.16,54,75,6.69,PE,1706555676
361,usinsk,65.9939,57.5281,-12.18,94,100,8.05,RU,1706555676
362,st. john's,47.5649,-52.7093,-1.68,94,100,3.6,CA,1706555677
363,qandala,11.472,49.8728,25.19,82,36,2.15,SO,1706555678
364,hadibu,12.65,54.0333,23.94,71,79,3.63,YE,1706555679
365,san agustin de valle fertil,-30.6335,-67.4682,35.64,20,0,7.34,AR,1706555679
366,florence,43.7667,11.25,10.85,56,0,1.03,IT,1706555529
367,shelekhov,52.2139,104.1,-32.57,99,12,0.48,RU,1706555680
368,san sebastian de la gomera,28.0916,-17.1133,23.2,24,0,2.06,ES,1706555681
369,chernyshevskiy,63.0128,112.4714,-42.51,100,59,1.0,RU,1706555681
370,zhosaly,45.4878,64.0781,-4.18,96,100,3.81,KZ,1706555651
371,conception bay south,47.4999,-52.9981,-1.81,94,100,5.73,CA,1706555682
372,kovur,14.4833,79.9833,20.59,79,92,1.23,IN,1706555683
373,gaspe,48.8334,-64.4819,-11.05,56,40,5.14,CA,1706555683
374,atafu village,-8.5421,-172.5159,29.18,70,88,2.5,TK,1706555684
375,nemuro,43.3236,145.575,-0.78,84,13,2.88,JP,1706555684
376,sheregesh,52.9209,87.9869,-15.02,99,100,1.08,RU,1706555685
377,ilanskiy,56.2358,96.065,-21.62,87,6,5.2,RU,1706555685
378,chulakkurgan,43.765,69.1814,-0.55,91,100,7.23,KZ,1706555686
379,bryne,58.7354,5.6477,4.99,97,0,0.0,NO,1706555687
380,raahe,64.6833,24.4833,3.05,74,0,10.56,FI,1706555397
381,pechora,65.1472,57.2244,-12.3,94,100,4.02,RU,1706555688
382,khovd,48.0056,91.6419,-21.71,92,27,0.5,MN,1706555689
383,hafar al-batin,28.4328,45.9708,15.32,44,0,7.72,SA,1706555689
384,sinabang,2.4803,96.3801,26.56,82,23,1.48,ID,1706555690
385,qamdo,31.1667,97.2333,-10.14,41,4,1.43,CN,1706555690
386,tamandare,-8.7597,-35.1047,28.88,67,19,5.04,BR,1706555691
387,vorkuta,67.5,64.0,-16.52,93,29,3.79,RU,1706555692
388,castel bolognese,44.3207,11.7999,5.11,67,6,1.19,IT,1706555692
389,isangel,-19.55,169.2667,23.8,78,94,3.24,VU,1706555693
390,taoudenni,22.6783,-3.9836,23.38,10,0,4.24,ML,1706555694
391,kalifornsky,60.4183,-151.29,-14.22,90,100,1.54,US,1706555694
392,nizhnesortymskiy,62.4397,71.7603,-24.43,100,75,2.0,RU,1706555542
393,alesund,62.4723,6.1549,6.85,68,0,7.72,NO,1706555553
394,kremenchuk,49.0973,33.4197,-1.22,82,48,2.37,UA,1706555458
395,tangalle,6.024,80.7911,24.41,88,99,4.65,LK,1706555696
396,felipe carrillo puerto,19.5833,-88.05,26.25,44,0,2.76,MX,1706555697
397,oum hadjer,13.2954,19.6966,24.42,13,0,4.48,TD,1706555698
398,santa maria,-29.6842,-53.8069,29.09,49,47,2.7,BR,1706555581
399,kokshetau,53.2775,69.3883,-17.59,98,89,2.36,KZ,1706555699
400,pacific grove,36.6177,-121.9166,21.88,66,0,1.54,US,1706555699
401,dera bugti,29.0307,69.151,15.07,41,100,1.29,PK,1706555700
402,praia da vitoria,38.7333,-27.0667,17.09,88,20,5.17,PT,1706555701
403,egilsstadir,65.2653,-14.3948,4.95,70,40,8.23,IS,1706555701
404,tamanrasset,22.785,5.5228,15.95,10,0,2.06,DZ,1706555702
405,namsos,64.4662,11.4957,7.03,81,100,11.32,NO,1706555590
406,mount pleasant,32.7941,-79.8626,16.67,49,0,6.69,US,1706555703
407,khandyga,62.6667,135.6,-47.74,100,87,0.94,RU,1706555704
408,klichaw,53.4928,29.3352,-2.5,94,100,3.69,BY,1706555705
409,villanueva,15.3167,-88.0,20.58,88,40,2.57,HN,1706555705
410,houlton,46.1262,-67.8403,-2.77,63,100,6.17,US,1706555706
411,sovetskaya gavan',48.9723,140.2878,-9.94,97,100,3.9,RU,1706555706
412,hashtrud,37.4779,47.0508,-3.92,81,100,1.23,IR,1706555707
413,oppdal,62.5943,9.6912,-6.16,78,65,5.68,NO,1706555687
414,luanda,-8.8368,13.2343,28.0,82,20,3.6,AO,1706555482
415,berezovyy,51.6667,135.7,-20.16,99,92,1.44,RU,1706555709
416,sitka,57.0531,-135.33,9.94,71,100,18.52,US,1706555709
417,pascagoula,30.3658,-88.5561,16.4,47,0,3.53,US,1706555710
418,laguna,38.421,-121.4238,22.27,71,0,1.54,US,1706555711
419,rikaze,29.25,88.8833,-4.09,33,34,1.46,CN,1706555711
420,cole harbour,44.6724,-63.4751,-1.13,90,100,7.15,CA,1706555433
421,san antonio de pale,-1.4014,5.6325,27.57,81,79,3.18,GQ,1706555713
422,rosarito,32.3333,-117.0333,25.51,37,7,0.79,MX,1706555634
423,callao,-12.0667,-77.15,28.16,65,0,6.17,PE,1706555714
424,bereznik,62.8551,42.7072,1.29,88,100,4.7,RU,1706555714
425,bondo,3.8146,23.6866,24.94,43,100,0.43,CD,1706555715
426,kalmunai,7.4167,81.8167,25.17,86,82,3.38,LK,1706555716
427,afaahiti,-17.75,-149.2833,28.93,78,100,1.52,PF,1706555716
428,klyuchi,52.2667,79.1667,-18.17,97,75,2.87,RU,1706555639
429,nagqu,31.5,92.0,-12.27,95,100,2.32,CN,1706555717
430,siwa oasis,29.2041,25.5195,14.07,44,93,5.37,EG,1706555718
431,chaozhou,23.6651,116.6379,13.92,89,95,0.35,CN,1706555719
432,tocopilla,-22.092,-70.1979,23.98,72,20,3.98,CL,1706555719
433,wotho,10.1657,166.0102,26.47,75,96,4.65,MH,1706555720
434,carbonear,47.7332,-53.2148,-1.43,95,100,8.8,CA,1706555720
435,sao jose da coroa grande,-8.8978,-35.1478,28.84,67,15,5.21,BR,1706555721
436,tidjikja,18.5564,-11.4271,22.12,11,0,4.93,MR,1706555722
437,alofi,-19.0595,-169.9187,27.94,83,100,2.57,NU,1706555722
438,soio,-6.1349,12.3689,27.41,86,100,1.78,AO,1706555723
439,maputo,-25.9653,32.5892,25.82,73,20,4.12,MZ,1706555724
440,kotel'nich,58.3089,48.348,-4.29,95,100,4.26,RU,1706555724
441,floro,61.5996,5.0328,5.98,81,75,5.14,NO,1706555725
442,mardakan,40.4922,50.1389,3.97,75,75,6.17,AZ,1706555725
443,salinopolis,-0.6136,-47.3561,27.29,87,100,4.16,BR,1706555726
444,olovyannaya,50.95,115.5667,-29.58,100,91,1.26,RU,1706555600
445,itoman,26.1247,127.6694,17.83,67,100,1.54,JP,1706555727
446,carutapera,-1.195,-46.02,29.98,67,89,4.53,BR,1706555728
447,sakata,38.9167,139.855,4.96,76,100,3.73,JP,1706555729
448,nkove,-7.95,30.85,22.82,86,100,2.62,TZ,1706555729
449,hauterive,46.0901,3.4459,11.42,83,100,1.98,FR,1706555730
450,kirov,58.5966,49.6601,-5.79,96,100,3.13,RU,1706555731
451,tsetserleg,47.475,101.4542,-22.17,94,100,1.17,MN,1706555731
452,longonjo,-12.9067,15.2533,21.3,82,100,0.55,AO,1706555732
453,gharaunda,29.5375,76.9717,12.11,52,6,1.76,IN,1706555733
454,ceeldheer,3.8488,47.1806,26.18,85,31,7.88,SO,1706555733
455,severo-yeniseyskiy,60.3725,93.0408,-29.68,98,21,1.79,RU,1706555734
456,banda aceh,5.5577,95.3222,25.7,85,34,2.93,ID,1706555540
457,pariaman,-0.619,100.12,26.03,85,77,2.22,ID,1706555735
458,salekhard,66.53,66.6019,-27.04,100,100,1.55,RU,1706555736
459,andkhoy,36.9529,65.1238,6.19,65,100,5.02,AF,1706555736
460,vail,32.0479,-110.712,22.19,24,99,4.02,US,1706555598
461,rudsar,37.1376,50.288,7.99,88,80,0.88,IR,1706555738
462,ostseebad kuhlungsborn,54.15,11.75,5.58,76,100,4.09,DE,1706555738
463,nguigmi,14.2495,13.1092,22.43,23,6,6.08,NE,1706555739
464,prince rupert,54.3161,-130.3201,10.05,81,100,17.49,CA,1706555740
465,geraldton,-28.7667,114.6,19.23,82,0,4.63,AU,1706555740
466,acapulco de juarez,16.8634,-99.8901,29.9,70,75,1.03,MX,1706555741
467,nea ionia,38.0373,23.7595,5.9,85,40,6.17,GR,1706555742
468,megalopoli,37.4011,22.1422,6.25,89,32,2.08,GR,1706555743
469,ripoll,42.2006,2.1903,9.21,89,100,1.49,ES,1706555743
470,kogalym,62.2654,74.4791,-26.14,100,98,3.56,RU,1706555744
471,gadzhiyevo,69.2551,33.3362,0.99,66,100,15.98,RU,1706555744
472,arapiraca,-9.7525,-36.6611,32.56,38,3,8.73,BR,1706555745
473,fortuna,40.5982,-124.1573,20.52,70,0,2.57,US,1706555746
474,baardheere,2.3446,42.2764,29.3,56,88,7.86,SO,1706555746
475,xuddur,4.1213,43.8894,29.54,32,96,4.97,SO,1706555747
476,swift current,50.2834,-107.8014,8.45,66,0,4.63,CA,1706555747
477,tanhacu,-14.0214,-41.2481,26.77,76,100,0.43,BR,1706555748
478,grande prairie,55.1667,-118.8027,1.1,75,75,1.54,CA,1706555749
479,berbesti,44.9833,23.8833,0.01,78,98,0.73,RO,1706555749
480,shingu,33.7333,135.9833,3.73,63,91,2.68,JP,1706555750
481,wanganui,-39.9333,175.05,17.0,91,46,2.68,NZ,1706555750
482,north battleford,52.7834,-108.2847,1.89,100,0,2.57,CA,1706555752
483,sibu,2.3,111.8167,24.17,100,40,0.51,MY,1706555752
484,fort mcmurray,56.7268,-111.381,2.77,80,0,1.54,CA,1706555753
485,grand gaube,-20.0064,57.6608,26.32,90,3,3.6,MU,1706555754
486,segou,13.4317,-6.2157,26.78,11,6,2.98,ML,1706555755
487,abeche,13.8292,20.8324,23.07,13,0,3.61,TD,1706555755
488,lensk,60.7253,114.9278,-36.71,100,69,1.39,RU,1706555756
489,vilyeyka,54.4896,26.9062,-0.83,91,95,4.8,BY,1706555757
490,woolgoolga,-30.1106,153.2007,25.02,88,98,1.95,AU,1706555757
491,madimba,-10.4,40.3333,26.19,85,100,3.28,TZ,1706555758
492,belomorsk,64.5232,34.7668,2.5,79,28,7.84,RU,1706555758
493,sur,22.5667,59.5289,23.85,72,100,1.5,OM,1706555759
494,cumbal,0.9088,-77.7915,17.6,59,40,6.17,CO,1706555699
495,katima mulilo,-17.5,24.2667,21.76,85,96,2.37,NA,1706555760
496,dededo village,13.5178,144.8391,24.58,76,0,8.23,GU,1706555761
497,mata-utu,-13.2816,-176.1745,29.47,80,81,7.27,WF,1706555762
498,kulhudhuffushi,6.6221,73.07,27.48,68,5,4.01,MV,1706555763
499,ifo,6.8144,3.1958,28.79,53,4,3.23,NG,1706555763
500,phillip island,-38.4835,145.231,18.04,86,0,4.86,AU,1706555765
501,kruisfontein,-34.0033,24.7314,21.6,81,99,4.88,ZA,1706555765
502,uirauna,-6.5183,-38.4122,36.93,23,26,4.34,BR,1706555766
503,teguise,29.0605,-13.564,19.12,78,0,2.57,ES,1706555766
504,xining,36.6167,101.7667,-2.9,22,0,0.85,CN,1706555710
505,bollnas,61.3482,16.3946,-2.74,91,100,1.33,SE,1706555768
506,sinop,41.7711,34.8709,0.02,96,98,2.36,TR,1706555486
507,mukalla,14.5425,49.1242,24.5,82,100,1.02,YE,1706555769
508,ketchikan,55.3422,-131.6461,10.99,81,100,10.29,US,1706555769
509,asahikawa,43.7678,142.3703,-2.85,96,100,1.54,JP,1706555770
510,grand falls-windsor,48.9332,-55.6649,-9.72,88,100,3.13,CA,1706555770
511,jiwani,25.05,61.7417,23.17,72,100,5.02,PK,1706555608
512,hoeryong,42.4428,129.7508,-10.19,88,9,1.32,KP,1706555771
513,roxas,11.5853,122.7511,22.3,83,100,5.44,PH,1706555772
514,walvis bay,-22.9575,14.5053,19.49,67,23,7.62,NA,1706555773
515,sao vicente,-23.9631,-46.3919,34.1,54,40,4.12,BR,1706555773
516,am timan,11.0297,20.2827,27.39,15,5,2.77,TD,1706555774
517,motueka,-41.1333,173.0167,14.5,57,0,1.94,NZ,1706555774
518,sydney,-33.8679,151.2073,24.63,89,100,3.6,AU,1706555070
519,muisne,0.6,-80.0333,28.46,75,100,3.83,EC,1706555776
520,goundi,9.3627,17.366,28.35,15,1,2.17,TD,1706555776
521,saint-felicien,48.6501,-72.4491,-8.62,67,100,4.12,CA,1706555777
522,tsumeb,-19.2333,17.7167,24.29,55,97,11.25,NA,1706555778
523,manda,-10.4667,34.5833,25.33,79,100,1.66,TZ,1706555778
524,dickinson,29.4608,-95.0513,20.05,44,0,0.45,US,1706555779
525,burela de cabo,43.65,-7.4,12.87,93,100,0.83,ES,1706555780
526,christchurch,-43.5333,172.6333,16.06,88,6,1.79,NZ,1706555226
527,hunstanton,52.95,0.5,10.91,87,100,2.24,GB,1706555781
